City ID,City,Country,Lat,Lng,Temperature,Humidity,Clouds,Wind Speed
986717,Kruisfontein,ZA,-34.0033,24.7314,53.35,80,0,6.51
553878,Kama,RU,56.3051,54.0936,62.71,90,99,12.01
3652764,Puerto Ayora,EC,-0.7393,-90.3518,73.54,89,37,4.0
3440777,Rocha,UY,-34.4833,-54.3333,49.95,65,100,8.52
1497210,Novoagansk,RU,61.9449,76.6625,64.81,38,2,6.11
5122534,Jamestown,US,42.097,-79.2353,52.2,82,1,6.91
3792382,Cartagena del Chairá,CO,1.3349,-74.8429,68.13,99,80,0.83
2126123,Chokurdakh,RU,70.6333,147.9167,40.95,86,100,13.33
6355222,Yulara,AU,-25.2406,130.9889,60.64,44,86,8.05
6316343,Alta Floresta,BR,-9.8756,-56.0861,75.72,64,90,0.56
1020098,Benoni,ZA,-26.1885,28.3208,34.12,9,2,2.91
2191562,Dunedin,NZ,-45.8742,170.5036,44.8,84,100,3.0
3874787,Punta Arenas,CL,-53.15,-70.9167,32.11,93,20,9.22
6170031,Tuktoyaktuk,CA,69.4541,-133.0374,37.4,84,100,11.25
5354943,Half Moon Bay,US,37.4636,-122.4286,67.46,66,1,5.75
1058532,Moramanga,MG,-18.9333,48.2,51.46,98,25,2.86
546105,Nikolskoye,RU,59.7035,30.7861,61.14,56,60,6.24
2017155,Saskylakh,RU,71.9167,114.0833,68.23,51,79,0.6
3894426,Coyhaique,CL,-45.5752,-72.0662,21.15,93,1,0.0
934322,Mahébourg,MU,-20.4081,57.7,70.25,72,91,16.49
5106841,Albany,US,42.6001,-73.9662,50.65,73,13,5.55
3369157,Cape Town,ZA,-33.9258,18.4232,57.34,90,90,1.01
5880054,Barrow,US,71.2906,-156.7887,50.02,66,1,13.8
1684491,Tagbina,PH,8.4519,126.1714,89.2,57,36,6.15
2075265,Busselton,AU,-33.65,115.3333,59.04,61,0,6.26
6167817,Torbay,CA,47.6666,-52.7314,56.03,98,90,5.75
5855927,Hilo,US,19.7297,-155.09,76.57,77,75,3.44
2264557,Ponta do Sol,PT,32.6667,-17.1,67.35,79,24,9.15
3175788,Oga,IT,46.4631,10.347,51.33,91,59,1.5
4030556,Rikitea,PF,-23.1203,-134.9692,74.75,79,80,23.13
3353383,Rundu,NA,-17.9333,19.7667,48.09,42,3,3.98
1621500,Wlingi,ID,-8.0776,112.3311,84.13,63,99,2.08
2738381,Lata,PT,40.1629,-8.3327,61.32,98,17,1.9
6185377,Yellowknife,CA,62.456,-114.3525,54.79,57,100,17.0
1649150,Bengkulu,ID,-3.8004,102.2655,83.66,68,54,4.29
1214488,Meulaboh,ID,4.1363,96.1285,84.18,64,62,2.66
195298,Kajiado,KE,-1.8524,36.7768,56.17,89,94,4.83
3466165,Cidreira,BR,-30.1811,-50.2056,51.69,80,99,7.87
2521582,Arona,ES,28.0996,-16.681,62.94,82,40,1.99
1006984,East London,ZA,-33.0153,27.9116,60.55,74,30,6.35
364933,Umm Kaddadah,SD,13.6017,26.6876,80.08,49,100,2.51
3424607,Tasiilaq,GL,65.6145,-37.6368,30.36,79,95,3.09
2110227,Butaritari,KI,3.0707,172.7902,84.04,69,18,11.48
6201424,Mataura,NZ,-46.1927,168.8643,46.47,92,74,2.64
2729907,Longyearbyen,SJ,78.2186,15.6401,37.24,70,75,10.36
2449893,Tessalit,ML,20.1986,1.0114,88.0,12,0,13.91
3932145,Pisco,PE,-13.7,-76.2167,62.65,88,60,9.22
3418910,Upernavik,GL,72.7868,-56.1549,33.58,91,26,4.0
3620680,Bluefields,NI,12.0137,-83.7635,78.28,89,26,4.12
3105522,Bereda,ES,43.2686,-7.5406,60.85,100,100,3.15
4231997,Avera,US,33.194,-82.5271,68.43,57,0,5.19
300273,Şuhut,TR,38.5311,30.5458,54.77,71,60,1.74
5563839,Fortuna,US,40.5982,-124.1573,57.31,68,1,3.0
3833367,Ushuaia,AR,-54.8,-68.3,35.26,69,0,0.0
5282297,Bethel,US,41.3712,-73.414,55.51,79,1,3.44
3137469,Sørland,NO,67.667,12.6934,47.95,79,100,17.52
2206939,Bluff,NZ,-46.6,168.3333,46.8,72,90,11.45
3617694,Matiguás,NI,12.8373,-85.4622,73.96,95,100,1.81
5546220,Saint George,US,37.1041,-113.5841,98.24,12,1,1.01
2618795,Klaksvík,FO,62.2266,-6.589,49.12,90,51,16.71
2299625,Kintampo,GH,8.0563,-1.7306,72.75,78,86,7.76
933995,Souillac,MU,-20.5167,57.5167,70.36,73,98,15.52
3833859,Tres Arroyos,AR,-38.3739,-60.2798,38.43,80,81,1.54
2074865,Carnarvon,AU,-24.8667,113.6333,69.87,39,0,19.57
2629833,Husavik,IS,66.0449,-17.3389,36.73,82,100,6.82
3366880,Hermanus,ZA,-34.4187,19.2345,51.8,83,1,7.61
1512223,Abalak,RU,58.1286,68.5944,75.58,56,54,10.33
1510377,Belyy Yar,RU,53.6039,91.3903,58.89,88,75,4.47
3414079,Olafsvik,IS,64.8945,-23.7142,40.39,68,100,18.88
2636790,Stornoway,GB,58.2093,-6.3865,51.76,87,40,12.66
3628473,San Cristobal,VE,7.7669,-72.225,65.55,94,91,2.73
964432,Port Alfred,ZA,-33.5906,26.891,58.55,81,5,9.01
1486321,Yar-Sale,RU,66.8333,70.8333,66.74,40,79,17.31
3671450,Inírida,CO,3.8653,-67.9239,72.14,98,94,1.99
3175096,Laas,IT,46.6166,10.7002,61.36,93,30,0.94
2112309,Katsuura,JP,35.1333,140.3,76.98,67,84,18.28
3689232,Baraya,CO,3.1533,-75.0531,68.97,78,20,4.76
4020109,Atuona,PF,-9.8,-139.0333,79.72,75,21,23.38
490391,Sosnogorsk,RU,63.6023,53.8817,52.0,45,15,8.21
3464460,Itapora,BR,-22.0799,-54.7874,62.85,69,99,7.81
5954718,Flin Flon,CA,54.7682,-101.865,63.37,51,100,12.12
361058,Alexandria,EG,31.2156,29.9553,71.31,64,0,7.34
1272140,Dwārka,IN,22.2394,68.9678,86.85,71,100,13.44
2108502,Honiara,SB,-9.4333,159.95,84.99,70,26,5.06
1651810,Airai,TL,-8.9266,125.4092,74.16,46,77,3.85
1015776,Bredasdorp,ZA,-34.5322,20.0403,51.28,84,2,6.38
2122104,Petropavlovsk-Kamchatskiy,RU,53.0452,158.6483,63.19,52,0,11.18
5848280,Kapaa,US,22.0752,-159.319,77.99,78,90,1.99
3141667,Roald,NO,62.5833,6.1333,56.01,94,40,4.61
2070998,Geraldton,AU,-28.7667,114.6,64.81,55,0,14.97
1513650,Hamza,UZ,40.4264,71.4956,78.75,26,0,5.01
5164390,New Philadelphia,US,40.4898,-81.4457,52.32,74,1,3.44
2119283,Zyryanka,RU,65.75,150.85,56.19,32,45,12.86
1791464,Wenling,CN,28.3669,121.36,93.9,83,88,5.23
3471451,Arraial do Cabo,BR,-22.9661,-42.0278,70.3,74,52,13.47
3831208,Qaanaaq,GL,77.484,-69.3632,30.34,79,92,3.8
1516048,Khovd,MN,48.0056,91.6419,66.2,33,1,6.02
3013748,Hauterive,FR,46.0901,3.4459,70.38,88,89,2.55
3461425,Ilhabela,BR,-23.7781,-45.3581,63.55,89,60,4.72
3685702,Cravo Norte,CO,6.3017,-70.2041,75.54,91,99,1.61
4021858,Guerrero Negro,MX,27.9769,-114.0611,66.4,86,6,13.78
1714733,Dingle,PH,10.9995,122.6711,89.71,60,8,4.97
567774,Chudovo,RU,59.1167,31.6833,57.65,68,35,4.85
2090021,Namatanai,PG,-3.6667,152.4333,83.19,70,79,5.03
2965402,Clonakilty,IE,51.6231,-8.8706,49.21,83,74,8.75
1810821,Fuzhou,CN,26.0614,119.3061,98.2,48,78,2.44
3470137,Belmonte,BR,-15.8631,-38.8828,68.5,77,9,3.44
2521710,Antequera,ES,37.0194,-4.5612,62.02,81,61,5.3
2146219,Hervey Bay,AU,-25.2986,152.8535,80.04,75,22,10.0
2155415,New Norfolk,AU,-42.7826,147.0587,52.93,84,100,1.99
2126710,Beringovskiy,RU,63.05,179.3167,43.02,78,98,16.24
1507390,Dikson,RU,73.5069,80.5464,41.4,67,86,23.02
2058430,Whyalla,AU,-33.0333,137.5833,61.38,60,43,17.54
5557293,Sitka,US,57.0531,-135.33,55.29,67,75,4.61
6165406,Thompson,CA,55.7435,-97.8558,60.96,88,75,17.27
1812256,Dongsheng,CN,39.8161,109.9776,68.45,19,25,14.97
133595,Gerāsh,IR,27.6652,54.1371,87.94,18,0,5.79
3870282,Talcahuano,CL,-36.7167,-73.1167,46.08,100,8,4.61
3369174,Calvinia,ZA,-31.4707,19.776,45.19,86,0,1.52
5506956,Las Vegas,US,36.175,-115.1372,105.04,8,1,6.91
3883457,Lebu,CL,-37.6167,-73.65,51.44,86,71,4.76
4475622,Leland,US,34.2563,-78.0447,70.0,92,1,0.0
1626493,Srandakan,ID,-7.9386,110.2506,66.72,74,100,2.57
1047660,Cuamba,MZ,-14.8031,36.5372,65.21,67,92,1.52
3361934,Saldanha,ZA,-33.0117,17.9442,56.52,87,3,5.48
4035715,Avarua,CK,-21.2078,-159.775,76.87,80,29,22.79
935215,Saint-Philippe,RE,-21.3585,55.7679,66.94,84,61,12.66
7082481,Khuzdar,PK,27.7384,66.6434,84.83,25,0,4.65
5364022,La Palma,US,33.8464,-118.0467,69.31,86,75,6.91
3491161,Bull Savanna,JM,17.8868,-77.5902,75.29,87,66,10.11
2126199,Cherskiy,RU,68.75,161.3,48.52,53,100,4.21
1501377,Kungurtug,RU,50.5994,97.5228,59.31,36,4,2.42
2377450,Nouakchott,MR,18.0858,-15.9785,73.33,80,21,7.31
2288105,Grand-Lahou,CI,5.1367,-5.0242,76.23,87,93,7.81
6160362,Swan River,CA,52.1058,-101.2676,63.45,47,0,19.98
1855342,Nishihara,JP,26.1842,127.7558,82.9,92,90,11.5
1648636,Bitung,ID,1.4451,125.1824,86.85,72,47,7.56
215976,Ilebo,CD,-4.3167,20.5833,63.99,50,62,0.81
3380290,Sinnamary,GF,5.3833,-52.95,77.29,89,91,8.41
2022572,Khatanga,RU,71.9667,102.5,63.14,62,75,10.8
72181,Marzuq,YE,14.4,46.4667,83.91,30,99,2.35
1718367,Karligan,PH,14.975,122.0456,90.91,57,76,6.08
5864145,Homer,US,59.6425,-151.5483,52.79,79,75,5.75
3592086,Ocós,GT,14.5094,-92.1933,77.31,85,100,8.61
4036284,Alofi,NU,-19.0595,-169.9187,78.15,81,62,13.38
1259069,Rādhanpur,IN,23.8333,71.6,93.29,48,2,11.34
1788852,Xining,CN,36.6167,101.7667,52.12,75,100,2.46
5866583,Saint Paul Harbor,US,57.79,-152.4072,47.71,93,90,8.05
935214,Saint-Pierre,RE,-21.3393,55.4781,67.15,87,75,11.5
2028164,Deputatsky,RU,69.3,139.9,63.34,43,23,25.68
2123814,Leningradskiy,RU,69.3833,178.4167,41.04,85,100,10.8
4034496,Fare,PF,-16.7,-151.0167,79.9,78,98,21.23
3347019,Mossamedes,AO,-15.1961,12.1522,64.72,73,21,7.34
477940,Ust-Tsilma,RU,65.441,52.1498,51.94,39,7,6.6
4844309,Torrington,US,41.8007,-73.1212,54.21,71,1,1.01
1282256,Hithadhoo,MV,-0.6,73.0833,83.82,73,92,8.52
1490256,Talnakh,RU,69.4865,88.3972,59.09,79,93,11.23
2122090,Pevek,RU,69.7008,170.3133,32.14,92,96,11.63
2163355,Hobart,AU,-42.8794,147.3294,52.9,94,90,3.0
1489398,Topchikha,RU,52.8192,83.1185,72.18,54,86,8.61
544119,Kosino,RU,58.4127,51.2782,57.72,68,30,10.33
3517970,Pochutla,MX,15.7432,-96.4661,74.82,92,100,5.14
866062,Iskateley,RU,67.6803,53.1512,49.17,47,4,14.43
3385658,Uruçuí,BR,-7.2294,-44.5561,73.24,51,10,2.35
964420,Port Elizabeth,ZA,-33.918,25.5701,56.79,79,0,6.87
6149996,Smithers,CA,54.7804,-127.1743,57.83,60,28,5.12
1735106,George Town,MY,5.4112,100.3354,89.89,73,20,1.99
1252783,Yārāda,IN,17.65,83.2667,88.12,58,90,11.5
3465487,Coromandel,BR,-18.4733,-47.2003,55.26,45,0,4.72
3579925,St. George's,GD,12.0564,-61.7485,80.28,89,75,13.8
2013918,Ust-Maya,RU,60.4167,134.5333,72.63,29,89,4.85
4513583,Hamilton,US,39.1834,-84.5333,61.88,73,40,0.0
2018069,Peleduy,RU,59.6289,112.7406,73.22,35,78,5.1
2127202,Anadyr,RU,64.75,177.4833,48.0,66,45,11.01
3401548,Crateús,BR,-5.1783,-40.6775,72.1,66,11,2.84
1066310,Betioky,MG,-23.7167,44.3833,58.78,78,0,6.15
2012530,Zhigansk,RU,66.7697,123.3711,71.64,36,14,6.22
3443061,Chui,UY,-33.6971,-53.4616,51.21,78,100,10.87
4004293,Ixtapa,MX,20.7,-105.2,84.22,84,74,2.73
6067747,Matagami,CA,49.7502,-77.6328,42.24,60,59,5.82
946257,Ulundi,ZA,-28.3352,31.4162,58.21,40,92,5.03
3617763,Managua,NI,12.1328,-86.2504,78.51,82,100,2.33
3893726,Constitución,CL,-35.3333,-72.4167,53.31,85,2,4.03
2094342,Kavieng,PG,-2.5744,150.7967,84.38,66,100,5.3
4499379,Wilmington,US,34.2257,-77.9447,69.87,87,1,0.0
5713587,Bend,US,44.0582,-121.3153,64.67,35,1,1.99
631707,Vihti,FI,60.417,24.3197,55.33,93,62,5.3
913323,Kaoma,ZM,-14.7833,24.8,46.49,57,6,6.08
1106677,Bambous Virieux,MU,-20.3428,57.7575,70.21,73,83,16.53
5866063,Kenai,US,60.5544,-151.2583,51.53,76,1,5.75
5379439,Ontario,US,34.0633,-117.6509,76.37,54,75,3.0
4032243,Vaini,TO,-21.2,-175.2,75.36,94,75,5.75
2961459,Skibbereen,IE,51.55,-9.2667,49.8,80,72,8.08
2162662,Inverell,AU,-29.7833,151.1167,58.1,53,2,7.0
5044290,Saint Anthony,US,45.0205,-93.218,75.24,52,1,3.0
2036338,Kaitong,CN,44.8135,123.15,74.44,32,0,15.97
217834,Bukama,CD,-9.2,25.85,57.92,51,37,2.48
3412093,Vestmannaeyjar,IS,63.4427,-20.2734,41.65,65,88,14.0
3374210,São Filipe,CV,14.8961,-24.4956,72.27,85,32,2.28
4033557,Tautira,PF,-17.7333,-149.15,78.82,84,100,18.03
3401188,Curuçá,BR,-0.7289,-47.8481,72.68,96,10,3.87
3173615,Melfi,IT,40.9965,15.6514,64.22,59,3,4.18
2138555,Poum,NC,-20.2333,164.0167,74.5,81,74,4.99
5245387,Beloit,US,42.5084,-89.0318,62.91,52,1,4.61
1863997,Fukuechō,JP,32.6881,128.8419,71.96,94,75,4.61
3430863,Mar del Plata,AR,-38.0023,-57.5575,41.7,63,40,4.0
2033866,Xifeng,CN,42.7372,124.7222,62.38,97,100,12.21
3454061,Peruíbe,BR,-24.32,-46.9983,61.99,92,98,3.6
5972762,Hay River,CA,60.8156,-115.7999,42.12,98,100,16.42
3374333,Praia,CV,14.9215,-23.5087,70.75,84,24,10.63
556268,Ostrovnoy,RU,68.0531,39.5131,47.41,61,16,9.13
5742974,North Bend,US,43.4065,-124.2243,57.69,85,1,14.97
1528796,At-Bashi,KG,41.1702,75.8106,55.58,55,100,0.43
2641434,Northam,GB,51.0333,-4.2167,55.78,90,98,7.61
2514651,Los Llanos de Aridane,ES,28.6585,-17.9182,65.12,92,75,12.66
3404558,Cabedelo,BR,-6.9811,-34.8339,74.07,89,15,10.27
4726521,San Patricio,US,28.017,-97.5169,80.96,77,0,5.66
136702,Dehlorān,IR,32.6941,47.2679,96.3,10,0,1.14
1701054,Marawi,PH,7.9986,124.2928,79.32,76,44,1.59
3163962,Volterra,IT,43.4003,10.86,60.55,86,100,2.21
2294915,Takoradze,GH,4.8845,-1.7554,77.07,86,91,8.7
2071860,Esperance,AU,-33.8667,121.9,58.42,52,85,6.24
88533,Awjilah,LY,29.1081,21.2869,75.67,33,0,7.11
1529660,Aksu,CN,41.1231,80.2644,78.03,18,42,7.54
1510131,Beya,RU,53.0533,90.9139,71.78,56,6,3.53
3466704,Castro,BR,-24.7911,-50.0119,50.81,91,88,7.78
1804586,Laiyang,CN,36.9758,120.7136,69.42,85,100,6.06
2263905,Ribeira Brava,PT,32.65,-17.0667,67.44,81,19,8.75
2021188,Kurumkan,RU,54.3,110.3,59.43,61,60,6.04
1852357,Shimoda,JP,34.6667,138.95,75.11,67,36,14.25
1895695,Kushima,JP,31.4583,131.2333,73.72,88,100,5.1
533933,Lovozero,RU,68.005,35.0117,47.3,61,31,3.24
1502073,Krasnosel'kup,RU,65.7,82.4667,61.63,69,78,9.6
292968,Abu Dhabi,AE,24.4667,54.3667,95.02,46,0,12.66
3467272,Capim Grosso,BR,-11.3811,-40.0128,64.02,96,2,3.11
3372707,Ribeira Grande,PT,38.5167,-28.7,65.68,90,100,22.5
4031637,Lavrentiya,RU,65.5833,-171.0,40.91,89,83,5.14
2171099,Codrington,AU,-38.2667,141.9667,55.09,80,96,6.91
2109701,Auki,SB,-8.7676,160.7034,86.79,61,8,3.96
1819729,Hong Kong,HK,22.2855,114.1577,89.53,78,85,1.01
281133,Gaza,PS,31.5,34.4667,68.94,61,33,3.22
2067119,Mandurah,AU,-32.55,115.7,60.78,62,0,4.29
6096551,Pangnirtung,CA,66.1451,-65.7125,34.66,94,100,0.78
3386213,Touros,BR,-5.1989,-35.4608,74.3,90,1,10.36
6089245,Norman Wells,CA,65.282,-126.8329,66.13,46,42,8.52
640276,Raahe,FI,64.6833,24.4833,50.09,79,67,11.74
5914894,Canmore,CA,51.0834,-115.3521,50.04,52,3,6.46
1636426,Manggar,ID,-2.8833,108.2667,85.03,66,99,7.25
2016307,Solnechnyy,RU,50.7214,136.6319,84.06,36,99,11.86
2068110,Kununurra,AU,-15.7667,128.7333,87.78,22,56,10.36
6453316,Tromsø,NO,69.6496,18.957,43.47,76,40,9.22
3416888,Grindavik,IS,63.8424,-22.4338,39.67,75,75,18.41
2208248,Kaitangata,NZ,-46.2817,169.8464,48.92,82,100,6.58
2980080,Saint-François,FR,46.4154,3.9054,68.25,80,65,4.61
4845585,Westport,US,41.1415,-73.3579,59.18,72,1,1.01
739598,Sinop Province,TR,41.7711,34.8709,57.0,92,100,4.85
3421765,Nanortalik,GL,60.1432,-45.2371,37.2,87,100,4.79
2013465,Verkhoyansk,RU,67.5447,133.385,73.38,32,1,9.06
1277769,Baikunthpur,IN,23.25,82.55,82.13,61,100,5.68
1062553,Mahanoro,MG,-19.9,48.8,66.78,82,90,3.91
3357247,Gobabis,NA,-22.45,18.9667,44.65,52,0,3.58
2120612,Tigil',RU,57.8,158.6667,49.35,89,100,6.2
347796,Sohag,EG,26.557,31.6948,78.73,32,0,10.69
6113406,Prince Rupert,CA,54.3161,-130.3201,54.79,82,82,4.85
2111704,Namie,JP,37.4833,141.0,72.03,78,84,10.27
104515,Makkah al Mukarramah,SA,21.4267,39.8261,86.38,42,31,5.79
6137462,Saint-Augustin,CA,51.226,-58.6502,47.61,94,100,9.6
2434584,Bousso,TD,10.4795,16.7117,78.89,65,99,6.31
3408368,Acaraú,BR,-2.8856,-40.12,77.0,86,14,10.4
2173911,Broken Hill,AU,-31.95,141.4333,61.36,50,10,16.35
3421719,Narsaq,GL,60.9167,-46.05,41.22,80,83,2.24
3440034,Tacuarembó,UY,-31.7333,-55.9833,38.59,89,84,5.01
1058080,Nosy Varika,MG,-20.5833,48.5333,64.45,85,35,5.86
2023584,Imeni Poliny Osipenko,RU,52.4201,136.4853,80.11,59,100,4.03
1519030,Chu,KZ,43.5983,73.7614,82.78,20,100,6.13
3359638,Walvis Bay,NA,-22.9575,14.5053,54.09,84,0,5.99
80509,Al Bardīyah,LY,31.7561,25.0865,69.6,63,0,6.33
2152659,Port Macquarie,AU,-31.4333,152.9167,66.38,36,0,10.49
5861897,Fairbanks,US,64.8378,-147.7164,60.06,81,90,3.44
3423146,Ilulissat,GL,69.2167,-51.1,37.42,81,75,3.44
3870243,Taltal,CL,-25.4,-70.4833,59.79,71,0,1.79
1142263,Farah,AF,32.5,62.5,80.04,7,0,10.31
1529484,Kumul,CN,42.8,93.45,83.35,10,100,4.45
2212775,Sabha,LY,27.0377,14.4283,76.66,24,0,9.26
1519924,Kushmurun,KZ,52.4503,64.6311,86.68,23,29,13.6
2015701,Taksimo,RU,56.3444,114.8794,68.22,38,100,12.93
5127305,Monroe,US,43.1501,-77.6831,52.93,64,1,4.61
2082539,Merauke,ID,-8.4667,140.3333,82.69,72,45,13.04
2303611,Esim,GH,4.8699,-2.2405,77.68,85,88,9.95
5038108,Moorhead,US,46.8739,-96.7676,79.59,47,1,8.05
1789065,Ankang,CN,32.68,109.0172,72.16,73,100,3.58
6324729,Halifax,CA,44.6453,-63.5724,53.28,71,0,7.83
3437056,San Lorenzo,PY,-25.3333,-57.5333,50.94,87,0,10.36
638936,Rovaniemi,FI,66.5,25.7167,47.61,71,0,6.91
3653967,Muisne,EC,0.6,-80.0333,76.91,88,100,7.78
2156643,Mount Gambier,AU,-37.8333,140.7667,55.2,87,99,5.97
3468553,Cacequi,BR,-29.8836,-54.825,41.43,77,47,6.6
1503037,Kodinsk,RU,58.6881,99.1844,74.71,31,0,3.8
415189,Aden,YE,12.7794,45.0367,86.77,74,93,5.26
924572,Nsanje,MW,-16.92,35.262,65.03,92,21,1.74
2077895,Alice Springs,AU,-23.7,133.8833,62.15,29,40,9.22
2112802,Hasaki,JP,35.7333,140.8333,75.87,72,94,15.43
2396853,Omboué,GA,-1.5746,9.2618,75.72,86,100,7.16
2023333,Kachug,RU,53.9606,105.8817,67.95,43,27,13.33
3024035,Concarneau,FR,47.875,-3.9225,59.65,95,100,10.98
3939761,Hualmay,PE,-11.0964,-77.6139,66.0,84,81,11.34
3985710,Cabo San Lucas,MX,22.8909,-109.9124,86.05,71,16,18.72
3421193,Paamiut,GL,61.994,-49.6678,38.25,85,6,9.73
5372190,Mendota,US,36.7536,-120.3816,82.54,10,39,9.08
5110365,Broome,US,42.2506,-75.833,47.34,82,61,1.99
1163952,Tando Muhammad Khan,PK,25.123,68.5358,91.89,52,0,13.31
5379524,Orange,US,33.7,-117.7675,70.29,78,75,8.05
4034551,Faanui,PF,-16.4833,-151.75,80.44,77,85,21.74
3336897,La Rioja,ES,42.25,-2.5,56.48,84,100,4.29
780687,Berlevåg,NO,70.8578,29.0864,42.8,74,85,26.17
1485528,Zalesovo,RU,53.9939,84.7431,73.11,66,31,8.75
2194098,Ahipara,NZ,-35.1667,173.1667,60.15,75,2,8.25
5509851,Pahrump,US,36.2083,-115.9839,94.84,10,100,1.01
3520064,Salina Cruz,MX,16.1667,-95.2,77.47,84,100,9.64
2126682,Bilibino,RU,68.0546,166.4372,45.5,72,100,3.47
5962442,Goderich,CA,43.7501,-81.7165,47.57,59,33,4.74
4013679,Coahuayana Viejo,MX,18.7333,-103.6833,81.59,88,100,1.74
2015306,Tiksi,RU,71.6872,128.8694,46.6,75,50,8.77
2129513,Shimokizukuri,JP,40.8061,140.3861,74.1,62,15,10.38
4548267,Ponca City,US,36.707,-97.0856,80.37,64,1,6.91
2264923,Peniche,PT,39.3558,-9.3811,62.94,91,86,4.23
514739,Orshanka,RU,56.9161,47.8933,61.23,73,53,6.17
1651103,Atambua,ID,-9.1061,124.8925,83.93,49,43,2.1
3980683,Valentín Gómez Farías,MX,28.2167,-106.5833,75.87,25,13,9.15
3407762,Amapá,BR,1.0,-52.0,70.54,99,16,1.57
3855065,General Roca,AR,-39.0333,-67.5833,41.05,46,100,7.0
1712961,Gigmoto,PH,13.7796,124.39,89.33,62,16,9.64
5767918,Pierre,US,44.3683,-100.351,78.08,53,1,4.0
962367,Richards Bay,ZA,-28.783,32.0377,62.53,57,93,6.4
1067565,Beloha,MG,-25.1667,45.05,59.09,83,0,7.4
3355672,Lüderitz,NA,-26.6481,15.1594,58.03,74,41,3.56
110690,Faya,SA,18.3851,42.4509,68.52,28,83,2.26
3126369,Carballo,ES,43.213,-8.691,59.31,95,100,5.61
1061412,Mananara,MG,-16.1667,49.7667,69.44,78,99,5.93
2270385,Camacha,PT,33.0833,-16.3333,63.82,94,40,16.11
187896,Mandera,KE,3.9366,41.867,75.11,67,61,9.78
1261853,Narasannapeta,IN,18.4167,84.05,91.81,52,100,9.84
1263917,Māndal,IN,25.45,74.5667,91.81,41,2,9.62
1633034,Palu,ID,-0.8917,119.8707,87.8,67,26,3.24
2137773,Vao,NC,-22.6667,167.4833,71.76,75,58,7.47
1563281,Tuy Hoa,VN,13.0833,109.3,94.69,48,50,4.61
5983720,Iqaluit,CA,63.7506,-68.5145,34.7,74,80,13.0
286245,Sur,OM,22.5667,59.5289,95.85,37,0,2.64
3127047,Calatayud,ES,41.3535,-1.6432,69.17,85,100,5.79
1106643,Quatre Cocos,MU,-20.2078,57.7625,70.09,76,64,16.4
3374083,Bathsheba,BB,13.2167,-59.5167,79.41,78,75,19.57
779554,Honningsvåg,NO,70.9821,25.9704,42.55,75,75,21.85
3466980,Caravelas,BR,-17.7125,-39.2481,68.99,79,5,2.95
2307970,Micomeseng,GQ,2.1462,10.6164,68.0,100,100,0.98
2450173,Taoudenni,ML,22.6783,-3.9836,95.52,9,24,7.27
2122783,Katangli,RU,51.7102,143.2326,71.02,59,5,8.08
3448903,São João da Barra,BR,-21.6403,-41.0511,65.79,87,10,7.96
2063036,Port Lincoln,AU,-34.7333,135.8667,58.32,63,75,22.26
3598787,Champerico,GT,14.3,-91.9167,78.57,84,100,8.48
1260120,Pāthri,IN,19.25,76.45,79.18,72,100,11.5
371745,Kutum,SD,14.2,24.6667,72.95,66,100,14.99
1507116,Dudinka,RU,69.4058,86.1778,58.37,90,100,9.46
1489962,Tavda,RU,58.0425,65.2726,73.27,54,95,9.82
2132606,Samarai,PG,-10.6167,150.6667,80.29,80,98,11.56
5096699,Clifton,US,40.8584,-74.1638,60.76,55,1,1.99
1734705,Kuala Terengganu,MY,5.3302,103.1408,87.01,61,92,3.62
694590,Semenivka,UA,52.1783,32.5818,60.49,85,0,8.9
2633484,Wrexham,GB,53.0,-3.0,55.74,92,100,4.16
3445026,Vila Velha,BR,-20.3297,-40.2925,65.95,94,75,1.99
2109528,Buala,SB,-8.145,159.5921,85.24,65,3,7.47
1538641,Kedrovyy,RU,56.1667,91.8167,68.41,53,92,5.44
1788572,Xinxiang,CN,35.3089,113.8672,76.98,67,100,5.37
1161724,Chabahar,IR,25.2919,60.643,91.17,60,0,4.59
3837213,San Juan,AR,-31.5375,-68.5364,37.4,69,19,3.44
3661894,Tonantins,BR,-2.8731,-67.8022,71.82,99,99,1.39
545467,Konëvo,RU,62.1215,39.3192,54.07,56,23,7.18
1796236,Shanghai,CN,31.2222,121.4581,75.43,97,75,8.95
2632287,Dalvik,IS,65.9702,-18.5286,36.27,82,100,4.52
608271,Shubarkuduk,KZ,49.1447,56.4872,86.99,20,0,11.77
3446098,Três Lagoas,BR,-20.7511,-51.6783,62.6,62,24,4.88
6063191,Mackenzie,CA,55.2999,-123.1698,55.96,58,100,4.18
2630299,Hofn,IS,64.2539,-15.2082,40.5,62,100,19.8
2068655,Katherine,AU,-14.4667,132.2667,91.72,38,0,10.36
3899695,Ancud,CL,-41.8697,-73.8203,42.37,78,0,8.39
582956,Alekseyevka,RU,50.6309,38.6903,66.45,89,96,11.88
2059470,Victor Harbor,AU,-35.5667,138.6167,58.93,74,36,13.73
2027042,Batagay-Alyta,RU,67.8006,130.4114,71.2,27,3,2.55
6111862,Port Hardy,CA,50.6996,-127.4199,54.68,85,87,9.33
3163146,Andenes,NO,69.3143,16.1194,44.6,76,75,9.22
2126785,Belaya Gora,RU,68.5333,146.4167,54.0,43,98,11.14
260895,Karpathos,GR,35.507,27.2132,69.53,77,0,9.98
2876027,Lollar,DE,50.6465,8.705,64.36,77,80,1.99
2015852,Svetlaya,RU,46.5389,138.3297,64.45,72,58,14.16
2012956,Yerbogachën,RU,61.2767,108.0108,73.13,34,19,5.73
777019,Vardø,NO,70.3705,31.1107,48.4,69,17,22.95
3359736,Vredendal,ZA,-31.6683,18.5012,53.13,85,0,0.81
6111867,Port Hawkesbury,CA,45.6169,-61.3485,58.03,96,45,1.99
1503153,Klyuchi,RU,52.2667,79.1667,81.97,36,26,7.81
179525,Taveta,KE,-3.3963,37.6736,63.45,85,97,5.7
4031574,Provideniya,RU,64.3833,-173.3,44.71,81,90,11.18
1272864,Dhārchula,IN,29.85,80.5333,81.66,63,57,4.74
2702261,Kalmar,SE,56.6616,16.3616,48.13,100,0,0.0
5364271,Laguna,US,38.421,-121.4238,82.94,26,1,0.0
5881688,Fort Saint James,CA,54.4333,-124.25,57.38,52,77,5.95
1244926,Hambantota,LK,6.1241,81.1185,85.62,65,99,18.68
161943,Gumdag,TM,39.2061,54.5906,90.32,12,0,17.72
2136825,Isangel,VU,-19.55,169.2667,82.51,61,75,0.0
3860443,Comodoro Rivadavia,AR,-45.8667,-67.5,40.5,41,0,4.23
3566573,Cabañas,CU,22.9758,-82.9219,73.87,91,100,10.47
1568574,Qui Nhon,VN,13.7667,109.2333,93.31,54,38,9.13
487837,Stavrovo,RU,56.1331,40.013,58.03,71,33,8.12
5387494,Ridgecrest,US,35.6225,-117.6709,100.11,10,90,3.44
3933104,Pangoa,PE,-12.1167,-73.0,65.43,90,88,2.75
515879,Oktyabr'skiy,RU,54.4815,53.471,63.75,93,65,11.36
5312476,Safford,US,32.834,-109.7076,94.12,18,75,8.05
6162949,Terrace,CA,54.5163,-128.6035,56.43,69,69,3.09
2309528,Luba,GQ,3.4568,8.5547,78.26,83,100,8.88
236950,Obo,CF,5.3998,26.4869,66.06,98,100,4.25
5380437,Pacific Grove,US,36.6177,-121.9166,60.17,75,1,1.99
632542,Vammala,FI,61.3333,22.9,56.07,77,82,5.84
2186111,Ngunguru,NZ,-35.6167,174.5,62.17,71,37,9.01
2122389,Ossora,RU,59.2353,163.0719,48.81,77,100,8.03
296895,Yerköy,TR,39.6381,34.4672,56.35,79,5,4.74
315498,Heraclea,TR,37.5133,34.0467,56.44,67,5,6.17
3939168,Huarmey,PE,-10.0681,-78.1522,67.21,86,62,9.55
3655131,La Libertad,EC,-2.2333,-80.9,71.29,84,86,10.89
3430545,Morón,AR,-34.6534,-58.6198,44.46,70,100,4.81
189741,Lamu,KE,-2.2717,40.902,73.62,74,100,13.09
7647007,Bariloche,AR,-41.1456,-71.3082,34.45,54,7,3.27
5850554,Makakilo City,US,21.3469,-158.0858,80.85,53,20,6.91
1162316,Yazman,PK,29.1212,71.7446,93.72,37,71,6.35
2634739,Warrington,GB,53.3925,-2.5802,57.31,79,100,1.01
1150965,Ranong,TH,9.9658,98.6348,86.14,69,99,9.06
1624545,Tayu,ID,-6.5397,111.0518,81.19,77,100,3.94
3128291,Benavente,ES,42.0025,-5.6783,63.84,82,58,4.0
5924351,Clyde River,CA,70.4692,-68.5914,33.87,96,99,1.21
6620339,Karratha,AU,-20.7377,116.8463,72.05,29,100,22.01
2276492,Harper,LR,4.375,-7.7169,77.09,82,100,4.36
3893629,Coquimbo,CL,-29.9533,-71.3436,53.33,82,75,6.91
2180815,Tuatapere,NZ,-46.1333,167.6833,46.81,86,61,3.83
3381041,Mana,GF,5.6592,-53.7767,77.02,91,100,8.41
540121,Kshenskiy,RU,51.8408,37.7136,62.96,88,28,13.06
499342,Sakmara,RU,51.9844,55.3338,75.22,56,22,9.06
1260003,Pawāyan,IN,28.0667,80.1,90.28,54,24,12.68
1640972,Katobu,ID,-4.9408,122.5276,84.24,68,95,7.29
2447416,Ayorou,NE,14.7308,0.9174,86.76,41,5,10.11
5746545,Portland,US,45.5234,-122.6762,67.59,52,1,1.99
4705349,Laredo,US,27.5064,-99.5075,82.85,61,1,4.61
6171633,Ucluelet,CA,48.9329,-125.5528,58.08,84,39,8.75
6050066,La Ronge,CA,55.1001,-105.2842,61.56,47,91,12.88
5957776,Fredericton,CA,45.9454,-66.6656,52.88,76,2,5.5
1806445,Ji’an,CN,27.1172,114.9793,92.89,60,56,9.78
153709,Mwandiga,TZ,-4.83,29.6581,69.55,73,92,3.18
1789289,Ximeicun,CN,24.9639,118.3794,95.36,52,26,4.97
2240449,Luanda,AO,-8.8368,13.2343,70.5,89,45,7.58
2065594,Mount Isa,AU,-20.7333,139.5,74.97,22,43,10.36
359796,Suez,EG,29.9737,32.5263,67.46,74,0,6.06
4149635,Callaway,US,30.153,-85.5699,78.87,77,20,1.01
3407407,Aquiraz,BR,-3.9014,-38.3911,80.69,82,14,9.73
1267390,Kavaratti,IN,10.5669,72.642,83.26,81,59,23.51
7671223,Kloulklubed,PW,7.0419,134.2556,84.7,71,87,2.3
1180289,Dera Ghazi Khan,PK,30.0561,70.6348,91.78,41,72,6.17
141665,Bandar-e Lengeh,IR,26.5579,54.8807,87.94,67,0,7.54
1859964,Kaseda-shirakame,JP,31.4167,130.3167,76.48,77,98,6.42
2121385,Severo-Kuril'sk,RU,50.6789,156.125,50.4,74,67,7.94
1168700,Ormara,PK,25.2088,64.6357,83.77,79,24,5.77
3356832,Henties Bay,NA,-22.116,14.2845,53.85,87,0,5.66
64814,Bandarbeyla,SO,9.4942,50.8122,79.41,70,57,27.87
7626381,Klæbu,NO,63.2976,10.4826,55.24,85,91,3.22
2145554,Ulladulla,AU,-35.35,150.4667,59.79,59,23,16.42
176758,Kaputa,ZM,-8.4689,29.6619,58.19,62,93,0.98
100926,Umluj,SA,25.0213,37.2685,81.39,63,0,12.75
212902,Kindu,CD,-2.95,25.95,64.81,56,45,2.19
3373505,Speightstown,BB,13.25,-59.65,79.41,80,100,19.73
1863521,Gōtsuchō,JP,35.0,132.2167,74.08,78,86,10.16
5856516,‘Āhuimanu,US,21.4447,-157.8378,80.01,61,40,8.05
5859699,College,US,64.8569,-147.8028,60.1,80,75,9.22
5530022,San Angelo,US,31.4638,-100.437,81.43,49,1,1.01
738803,Terme,TR,41.2092,36.9739,64.33,90,73,3.44
3664716,Canutama,BR,-6.5339,-64.3831,73.67,92,100,1.1
3393692,Itarema,BR,-2.9248,-39.9167,77.14,85,6,10.22
2033196,Zhangjiakou,CN,40.81,114.8794,75.11,23,0,12.55
5134295,Rome,US,43.2128,-75.4557,49.05,85,1,0.0
2636276,Tamworth,GB,52.634,-1.6959,57.97,88,100,4.0
57000,Hobyo,SO,5.3505,48.5268,77.83,79,100,20.78
1855540,Naze,JP,28.3667,129.4833,79.43,75,75,8.46
53654,Mogadishu,SO,2.0371,45.3438,78.17,77,87,16.28
1052944,Angoche,MZ,-16.2325,39.9086,70.11,78,0,5.68
2392505,Nikki,BJ,9.9401,3.2108,72.37,86,97,1.86
2092164,Lorengau,PG,-2.0226,147.2712,84.92,65,85,7.36
149027,Uyovu,TZ,-3.2833,31.5258,66.61,52,100,4.72
4946620,Palmer,US,42.1584,-72.3287,55.2,71,1,3.44
1259385,Port Blair,IN,11.6667,92.75,85.06,75,100,16.62
934649,Cap Malheureux,MU,-19.9842,57.6142,70.47,86,13,7.0
2181625,Te Anau,NZ,-45.4167,167.7167,44.47,80,73,3.94
2990793,Nemours,FR,48.2751,2.6908,66.07,96,82,5.12
860012,Okny,UA,47.5404,29.46,62.13,91,39,8.16
3016078,Gif-sur-Yvette,FR,48.6833,2.1333,64.76,95,90,1.99
779683,Hammerfest,NO,70.6634,23.6821,41.45,81,75,14.97
1062663,Mahajanga,MG,-15.7167,46.3167,66.22,77,20,3.44
2392087,Porto-Novo,BJ,6.4965,2.6036,78.44,82,99,6.44
3395981,Maceió,BR,-9.6658,-35.7353,76.44,88,75,2.3
4228147,Valdosta,US,30.8327,-83.2785,72.91,91,1,0.0
2652464,Congleton,GB,53.1631,-2.2125,56.05,86,100,4.0
2121025,Srednekolymsk,RU,67.45,153.6833,53.11,34,91,8.93
3470709,Barra do Garças,BR,-15.89,-52.2567,64.89,41,54,2.75
935076,Hluti,SZ,-27.2167,31.6167,54.43,43,5,4.36
5883074,Albanel,CA,48.8832,-72.4487,48.67,96,100,9.95
3115824,Muros,ES,42.7762,-9.0603,62.11,87,100,7.02
3625710,Upata,VE,8.0086,-62.3989,71.46,96,100,2.73
2062276,Roebourne,AU,-20.7833,117.1333,72.05,29,100,22.17
5370868,Martinez,US,38.0194,-122.1341,74.75,41,1,3.44
3382160,Cayenne,GF,4.9333,-52.3333,76.08,91,100,1.01
2094027,Kieta,PG,-6.2167,155.6333,84.54,64,72,4.72
5847411,Kahului,US,20.8947,-156.47,79.92,73,40,14.97
1497337,Kayerkan,RU,69.3497,87.7602,58.75,79,99,10.51
2381972,Adrar,MR,20.5022,-10.0711,88.27,17,44,9.17
1214026,Sabang,ID,5.8933,95.3214,82.99,70,99,13.6
3533462,Acapulco de Juárez,MX,16.8634,-99.8901,79.07,88,100,6.8
477418,Vadinsk,RU,53.6916,43.0574,62.53,84,0,9.35
2139521,Noumea,NC,-22.2763,166.4572,78.01,99,41,8.88
584051,Agapovka,RU,53.2973,59.1348,76.21,45,92,8.32
1791779,Wanning,CN,18.8003,110.3967,90.63,61,53,11.86
3405215,Bonfim,BR,3.0833,-59.95,74.48,93,100,0.31
1853483,Oyama,JP,36.3,139.8,80.87,48,65,6.89
1566166,Thanh Hoa,VN,19.8,105.7667,96.21,49,47,5.97
2063042,Port Hedland,AU,-20.3167,118.5667,69.85,32,100,17.27
1056899,Sambava,MG,-14.2667,50.1667,70.84,78,71,11.72
2649715,Falmouth,GB,50.1544,-5.0711,54.27,100,100,3.0
3515200,PEMEX,MX,18.4395,-96.3461,74.08,88,100,4.43
1786538,Yining,CN,29.0361,114.5636,91.69,63,92,4.5
4470244,Havelock,US,34.8791,-76.9013,71.19,91,1,0.0
367644,Sennar,SD,13.5691,33.5672,82.94,57,61,8.95
4255151,Bud,US,39.447,-86.1758,64.58,76,19,2.95
3392126,Pilar,BR,-9.5972,-35.9567,75.13,95,22,3.87
1045114,Inhambane,MZ,-23.865,35.3833,66.2,82,3,5.66
2128975,Nemuro,JP,43.3236,145.575,49.93,87,96,10.38
3381538,Grand-Santi,GF,4.25,-54.3833,71.85,99,95,2.06
1275435,Biswān,IN,27.5,81.0,82.02,73,99,11.83
2015179,Tommot,RU,58.9564,126.2925,71.74,43,100,9.71
1235846,Matara,LK,5.9485,80.5353,84.4,72,100,13.69
465543,Zainsk,RU,55.3195,52.0694,63.59,86,99,15.52
2122574,Ola,RU,59.5833,151.2833,50.83,74,100,9.01
1489853,Tazovsky,RU,67.4667,78.7,53.64,41,24,4.5
764312,Mrągowo,PL,53.8644,21.3051,53.6,86,0,5.44
2381334,Atar,MR,20.5169,-13.0499,85.55,20,2,8.05
2460954,Araouane,ML,18.9048,-3.5265,88.97,14,0,1.92
6145890,Shelburne,CA,44.0787,-80.2041,46.62,65,8,8.21
1648082,Boyolangu,ID,-8.1181,111.8935,83.61,69,100,4.36
5972291,Havre-St-Pierre,CA,50.2334,-63.5986,46.76,100,90,6.91
6149374,Slave Lake,CA,55.2834,-114.769,48.18,87,90,28.77
542423,Krasnoborsk,RU,61.5598,45.934,58.84,55,73,9.64
5882953,Aklavik,CA,68.2191,-135.0107,52.41,49,100,14.5
934479,Grand Gaube,MU,-20.0064,57.6608,70.38,86,15,7.0
2134814,Sola,VU,-13.8833,167.55,81.46,76,98,13.22
4260977,Marion,US,39.7684,-86.1555,65.55,67,20,8.05
3521108,Progreso,MX,21.2833,-89.6667,75.31,92,100,7.99
2016907,Severomuysk,RU,56.1481,113.4267,53.47,48,99,12.57
686090,Asău,RO,46.4333,26.4,59.94,98,65,3.94
3994535,Ocampo,MX,21.65,-101.5,56.82,79,31,14.58
3515782,Terrenate,MX,19.4833,-97.9167,50.61,85,94,6.85
1527121,Tyup,KG,42.7276,78.3648,59.7,68,100,3.24
290030,Doha,QA,25.2867,51.5333,94.98,28,0,17.27
3904906,Santa Cruz de la Sierra,BO,-17.8,-63.1667,63.86,72,75,14.97
2178753,Kirakira,SB,-10.4544,161.9205,84.43,70,85,9.24
642455,Pedersore,FI,63.65,22.6833,47.5,68,82,8.63
3838859,Río Gallegos,AR,-51.6226,-69.2181,30.25,86,0,3.44
2222439,Rey Bouba,CM,8.6724,14.1786,73.17,84,83,0.49
2037013,Harbin,CN,45.75,126.65,74.8,45,94,14.29
2280376,Touba,CI,8.2833,-7.6833,68.52,97,17,3.74
2092740,Lae,PG,-6.7221,146.9847,81.77,68,100,2.42
1185095,Teknāf,BD,20.8624,92.3058,78.21,95,100,11.16
60019,Eyl,SO,7.9803,49.8164,78.96,69,94,24.54
370737,Malakal,SS,9.5334,31.6605,74.34,83,100,2.3
1514844,Pakhtakoron,TJ,40.1571,68.7466,85.68,15,0,2.68
2396518,Port-Gentil,GA,-0.7193,8.7815,77.67,82,94,11.52
3984997,San Quintín,MX,30.4833,-115.95,66.34,79,2,2.3
2690170,Nässjö,SE,57.6531,14.6968,50.92,73,90,4.45
2189343,Kaeo,NZ,-35.1,173.7833,62.33,75,9,7.72
3994469,Ojinaga,MX,29.5667,-104.4167,88.75,29,1,19.57
